{"type":"FeatureCollection","features":[{"type":"Feature","properties":{"Architect + Date":"Simone Marengo, builder (1906–07)","Address":"2215 Fifth Street, Berkeley, California 94710, United States","Landmark":"\t\tWest Berkeley Macaroni Factory","Notes":"Structure of Merit CA State Historic Resources Inventory","Designated":"28 Jan 1991","Link":"http://berkeleyheritage.com/berkeley_landmarks/marengo.html"},"geometry":{"coordinates":[-122.29741172883601,37.8645353525246],"type":"Point"}},{"type":"Feature","properties":{"Architect + Date":"William Clement Ambrose (1939)","Address":"2727 Milvia Street, Berkeley, California 94703, United States","Landmark":"Berkeley Iceland","Notes":"","Designated":"5 April 2007","Link":"http://berkeleyheritage.com/berkeley_landmarks/2007_landmarks.html"},"geometry":{"coordinates":[-122.26877154232848,37.859634470572345],"type":"Point"}},{"type":"Feature","properties":{"Address":"1920 Allston Way, Berkeley, California 94704, United States","Landmark":"Berkeley High School Gymnasium","Architect + Date":"William C. Hays (1922), Walter H. Ratcliff, Jr. (1929), Thomas Franklin Chase (1936–37)","Designated":"5 July 2007","Link":"http://berkeleyheritage.com/berkeley_landmarks/2007_landmarks.html","Notes":"Demolished in 2012"},"geometry":{"coordinates":[-122.27149854232766,37.86839400425929],"type":"Point"}},{"type":"Feature","properties":{"Address":"Between Piedmont Avenue and Stadium Rim Way","Architect + Date":"John Galen Howard (1921–23)","Landmark":"California Memorial Stadium","Designated":"1 June 2006","Link":"http://berkeleyheritage.com/berkeley_landmarks/2006_landmarks.html","Notes":"#6001086, National Register of Historic Places (27 Nov 2006)"},"geometry":{"coordinates":[-122.25073918099248,37.870974938815394],"type":"Point"}},{"type":"Feature","properties":{"Address":"2409 College Avenue, Berkeley, California 94704, United States","Architect + Date":"Walter H. Ratcliff (1913)","Landmark":"Channing Apartments","Designated":"5 February 2015","Notes":"CA State Historic Resources Inventory","Link":"http://berkeleyheritage.com/berkeley_landmarks/2015_landmarks.html"},"geometry":{"coordinates":[-122.25384556287594,37.86717684314999],"type":"Point"}},{"type":"Feature","properties":{"Address":"1007 University Avenue, Berkeley, California 94710, United States","Landmark":"Bernard Maybeck and Berkeley’s Concrete Grid-Form Wall Panels","Architect + Date":"Philip L. Coats (1949)","Notes":"Based on Bernard Maybeck’s 1938 design for 1001 University Ave. (demolished in 1980). Designation appealed to City Council and remanded to LPC. Redesignated on 4 March 2010.","Designated":"20 July 2009","Link":"http://berkeleyheritage.com/berkeley_landmarks/concrete_grid.html"},"geometry":{"coordinates":[-122.29401251615336,37.86901143582628],"type":"Point"}},{"type":"Feature","properties":{"Address":"2090 Kittredge Street, Berkeley, California 94704, United States","Link":"http://berkeleyheritage.com/berkeley_landmarks/images/public_library.jpg","Architect + Date":"James W. Plachek (1930)","Landmark":"Berkeley Public Library","Notes":"#82002156, National Register of Historic Places (1982)","Designated":"19 Apr 1982"},"geometry":{"coordinates":[-122.26852557015243,37.86818661006585],"type":"Point"}},{"type":"Feature","properties":{"Address":"2448 Bowditch Street, Berkeley, California 94704, United States","Landmark":"People’s Park","Architect + Date":1969,"Designated":"19 Nov 1984","Notes":"CA State Historic Resources Inventory","Link":"https://en.wikipedia.org/wiki/People%27s_Park_(Berkeley)"},"geometry":{"coordinates":[-122.25715381577878,37.865767732604866],"type":"Point"}},{"type":"Feature","properties":{"Address":"2101 University Avenue, Berkeley, California 94702, United States","Architect + Date":"Earle Bertz (1925)","Landmark":"U.S. Realty Corp. Building (MacFarlane Building)","Notes":"Formerly Structure of Merit [see No. 70]","Designated":"15 Sep 1986","Link":"http://berkeleyheritage.com/berkeley_landmarks/images/U.S._Realty.jpg"},"geometry":{"coordinates":[-122.26820883516635,37.872352479416506],"type":"Point"}},{"type":"Feature","properties":{"Landmark":"Longfellow School","Address":"1500 Derby Street, Berkeley, California 94703, United States","Architect + Date":"William C. Hays (1922); James W. Plachek (1930)","Designated":"2 Dec 1996","Link":"http://berkeleyheritage.com/berkeley_landmarks/images/Longfellow_School1.jpg"},"geometry":{"coordinates":[-122.27892017438464,37.85836467232713],"type":"Point"}}]}